[{"name":"Ben Nevis","height":1344,"gridref_letters":"NN","gridref_eastings":"16675","gridref_northings":"71283","latlng_lat":56.796849,"latlng_lng":-5.003525,"smcid":"M001","metoffice_loc_id":"350377","region":"Loch Linnhe to Loch Ericht","meaning":"Possibly from an old Gaelic word meaning venomous"},{"name":"Ben Macdui","height":1309,"gridref_letters":"NN","gridref_eastings":"98899","gridref_northings":"98943","latlng_lat":57.070368,"latlng_lng":-3.669099,"smcid":"M002","metoffice_loc_id":"350373","region":"Deeside to Speyside - The Cairngorms","meaning":"Hill of the son of Duff"},{"name":"Braeriach","height":1296,"gridref_letters":"NN","gridref_eastings":"95327","gridref_northings":"99915","latlng_lat":57.078298,"latlng_lng":-3.728389,"smcid":"M003","metoffice_loc_id":"350560","region":"Deeside to Speyside - The Cairngorms","meaning":"Brindled greyish upper part"},{"name":"Cairn Toul","height":1291,"gridref_letters":"NN","gridref_eastings":"96328","gridref_northings":"97228","latlng_lat":57.054397,"latlng_lng":-3.710773,"smcid":"M004","metoffice_loc_id":"350716","region":"Deeside to Speyside - The Cairngorms","meaning":"Hill of the barn"},{"name":"Sgor an Lochan Uaine (The Angel's Peak)","height":1258,"gridref_letters":"NN","gridref_eastings":"95428","gridref_northings":"97693","latlng_lat":57.058369,"latlng_lng":-3.725797,"smcid":"M005","metoffice_loc_id":"353406","region":"Deeside to Speyside - The Cairngorms","meaning":"Peak of the little green loch"},{"name":"Cairn Gorm","height":1244,"gridref_letters":"NJ","gridref_eastings":"00516","gridref_northings":"04065","latlng_lat":57.116714,"latlng_lng":-3.644477,"smcid":"M006","metoffice_loc_id":"3065","region":"Deeside to Speyside - The Cairngorms","meaning":"Blue hill"},{"name":"Aonach Beag","height":1234,"gridref_letters":"NN","gridref_eastings":"19707","gridref_northings":"71502","latlng_lat":56.799998,"latlng_lng":-4.954121,"smcid":"M007","metoffice_loc_id":"350117","region":"Loch Linnhe to Loch Ericht","meaning":"Little hill"},{"name":"Aonach Mor","height":1221,"gridref_letters":"NN","gridref_eastings":"19304","gridref_northings":"72961","latlng_lat":56.812932,"latlng_lng":-4.961744,"smcid":"M008","metoffice_loc_id":"350119","region":"Loch Linnhe to Loch Ericht","meaning":"Big hill"},{"name":"Carn Mor Dearg","height":1220,"gridref_letters":"NN","gridref_eastings":"17748","gridref_northings":"72172","latlng_lat":56.805246,"latlng_lng":-4.986616,"smcid":"M009","metoffice_loc_id":"350793","region":"Loch Linnhe to Loch Ericht","meaning":"Big red hill"},{"name":"Ben Lawers","height":1214,"gridref_letters":"NN","gridref_eastings":"63553","gridref_northings":"41424","latlng_lat":56.544922,"latlng_lng":-4.22086,"smcid":"M010","metoffice_loc_id":"350370","region":"Loch Tay to Rannoch Moor","meaning":"Gaelic labhar, meaning loud (from a stream)"},{"name":"Beinn a' Bhuird","height":1197,"gridref_letters":"NJ","gridref_eastings":"09231","gridref_northings":"00621","latlng_lat":57.08759,"latlng_lng":-3.499366,"smcid":"M011","metoffice_loc_id":"352853","region":"Deeside to Speyside - The Cairngorms","meaning":"Table-hill"},{"name":"Carn Eighe","height":1183,"gridref_letters":"NH","gridref_eastings":"12357","gridref_northings":"26198","latlng_lat":57.287711,"latlng_lng":-5.115127,"smcid":"M012","metoffice_loc_id":"350788","region":"Glen Shiel to Loch Mullardoch","meaning":"File hill"},{"name":"Beinn Mheadhoin","height":1182,"gridref_letters":"NJ","gridref_eastings":"02460","gridref_northings":"01695","latlng_lat":57.095849,"latlng_lng":-3.611464,"smcid":"M013","metoffice_loc_id":"350334","region":"Deeside to Speyside - The Cairngorms","meaning":"Middle hill"},{"name":"Mam Sodhail","height":1181,"gridref_letters":"NH","gridref_eastings":"12007","gridref_northings":"25332","latlng_lat":57.279801,"latlng_lng":-5.120267,"smcid":"M014","metoffice_loc_id":"352507","region":"Glen Shiel to Loch Mullardoch","meaning":"Hill of the barns"},{"name":"Stob Choire Claurigh","height":1177,"gridref_letters":"NN","gridref_eastings":"26196","gridref_northings":"73878","latlng_lat":56.823786,"latlng_lng":-4.849624,"smcid":"M015","metoffice_loc_id":"353683","region":"Loch Linnhe to Loch Ericht","meaning":"Gaelic clamhras, meaning brawling or clamouring"},{"name":"Ben More (Glen Dochart)","height":1174,"gridref_letters":"NN","gridref_eastings":"43275","gridref_northings":"24417","latlng_lat":56.385952,"latlng_lng":-4.540103,"smcid":"M016","metoffice_loc_id":"350375","region":"Loch Fyne to Loch Tay","meaning":"Big hill"},{"name":"Ben Avon, Leabaoidh an Daimh Bhuide","height":1171,"gridref_letters":"NJ","gridref_eastings":"13194","gridref_northings":"01845","latlng_lat":57.099347,"latlng_lng":-3.434422,"smcid":"M017","metoffice_loc_id":"352235","region":"Deeside to Speyside - The Cairngorms","meaning":"Bed of the yellow stag"},{"name":"Stob Binnein","height":1165,"gridref_letters":"NN","gridref_eastings":"43481","gridref_northings":"22713","latlng_lat":56.370726,"latlng_lng":-4.535753,"smcid":"M018","metoffice_loc_id":"353682","region":"Loch Fyne to Loch Tay","meaning":"Gaelic binnein, meaning peak"},{"name":"Beinn Bhrotain","height":1157,"gridref_letters":"NN","gridref_eastings":"95412","gridref_northings":"92292","latlng_lat":57.009868,"latlng_lng":-3.723813,"smcid":"M019","metoffice_loc_id":"350315","region":"Deeside to Speyside - The Cairngorms","meaning":"Hill of the mastiff"},{"name":"Derry Cairngorm","height":1155,"gridref_letters":"NO","gridref_eastings":"01734","gridref_northings":"98032","latlng_lat":57.062801,"latlng_lng":-3.622004,"smcid":"M020","metoffice_loc_id":"351197","region":"Deeside to Speyside - The Cairngorms","meaning":"Blue hill of Derry"},{"name":"Lochnagar","height":1155,"gridref_letters":"NO","gridref_eastings":"24372","gridref_northings":"86138","latlng_lat":56.960254,"latlng_lng":-3.24526,"smcid":"M021","metoffice_loc_id":"352399","region":"Glen Shee to Glen Esk","meaning":"Little loch of the noisy sound (Lochan na Gaire)"},{"name":"Sgurr nan Ceathreamhnan","height":1151,"gridref_letters":"NH","gridref_eastings":"05702","gridref_northings":"22851","latlng_lat":57.254911,"latlng_lng":-5.222732,"smcid":"M022","metoffice_loc_id":"353446","region":"Glen Shiel to Loch Mullardoch","meaning":"Peak of the quarters"},{"name":"Bidean nam Bian","height":1150,"gridref_letters":"NN","gridref_eastings":"14341","gridref_northings":"54211","latlng_lat":56.642768,"latlng_lng":-5.029335,"smcid":"M023","metoffice_loc_id":"350420","region":"Rannoch Moor to Loch Linnhe","meaning":"Peak of the mountains"},{"name":"Sgurr na Lapaich","height":1150,"gridref_letters":"NH","gridref_eastings":"16103","gridref_northings":"35125","latlng_lat":57.369311,"latlng_lng":-5.059726,"smcid":"M024","metoffice_loc_id":"353442","region":"Loch Mullardoch to Glen Carron","meaning":"Peak of the bog"},{"name":"Ben Alder","height":1148,"gridref_letters":"NN","gridref_eastings":"49616","gridref_northings":"71855","latlng_lat":56.813796,"latlng_lng":-4.465089,"smcid":"M025","metoffice_loc_id":"350365","region":"Loch Linnhe to Loch Ericht","meaning":"From the Alder Burn, meaning rock water"},{"name":"Geal-Charn","height":1132,"gridref_letters":"NN","gridref_eastings":"46990","gridref_northings":"74629","latlng_lat":56.837836,"latlng_lng":-4.509727,"smcid":"M026","metoffice_loc_id":"351553","region":"Loch Linnhe to Loch Ericht","meaning":"White hill"},{"name":"Binnein Mor","height":1130,"gridref_letters":"NN","gridref_eastings":"21219","gridref_northings":"66350","latlng_lat":56.754358,"latlng_lng":-4.925795,"smcid":"M027","metoffice_loc_id":"350438","region":"Loch Linnhe to Loch Ericht","meaning":"Big peak"},{"name":"Ben Lui (Beinn Laoigh)","height":1130,"gridref_letters":"NN","gridref_eastings":"26635","gridref_northings":"26297","latlng_lat":56.397013,"latlng_lng":-4.81051,"smcid":"M028","metoffice_loc_id":"350372","region":"Loch Fyne to Loch Tay","meaning":"Calf hill"},{"name":"An Riabhachan","height":1129,"gridref_letters":"NH","gridref_eastings":"13363","gridref_northings":"34482","latlng_lat":57.362429,"latlng_lng":-5.104728,"smcid":"M029","metoffice_loc_id":"350098","region":"Loch Mullardoch to Glen Carron","meaning":"The brindled greyish one"},{"name":"Creag Meagaidh","height":1128,"gridref_letters":"NN","gridref_eastings":"41841","gridref_northings":"87546","latlng_lat":56.952033,"latlng_lng":-4.602084,"smcid":"M030","metoffice_loc_id":"351067","region":"Speyside to Great Glen","meaning":"Bogland rock"},{"name":"Ben Cruachan","height":1126,"gridref_letters":"NN","gridref_eastings":"06962","gridref_northings":"30472","latlng_lat":56.426839,"latlng_lng":-5.131828,"smcid":"M031","metoffice_loc_id":"350368","region":"Rannoch Moor to Loch Linnhe","meaning":"Stacky hill"},{"name":"Carn nan Gabhar","height":1121,"gridref_letters":"NN","gridref_eastings":"97119","gridref_northings":"73314","latlng_lat":56.839837,"latlng_lng":-3.688006,"smcid":"M032","metoffice_loc_id":"350796","region":"Drumochter to Glen Shee","meaning":"Hill of the goats"},{"name":"A' Chralaig","height":1120,"gridref_letters":"NH","gridref_eastings":"09431","gridref_northings":"14797","latlng_lat":57.18424,"latlng_lng":-5.154842,"smcid":"M033","metoffice_loc_id":"350029","region":"Glen Shiel to Loch Mullardoch","meaning":"The basket or creel"},{"name":"An Stuc","height":1118,"gridref_letters":"NN","gridref_eastings":"63890","gridref_northings":"43103","latlng_lat":56.560093,"latlng_lng":-4.216258,"smcid":"M034","metoffice_loc_id":"350103","region":"Loch Tay to Rannoch Moor","meaning":"The peak"},{"name":"Meall Garbh","height":1118,"gridref_letters":"NN","gridref_eastings":"64437","gridref_northings":"43757","latlng_lat":56.566122,"latlng_lng":-4.207707,"smcid":"M035","metoffice_loc_id":"352584","region":"Loch Tay to Rannoch Moor","meaning":"Rough hill"},{"name":"Sgor Gaoith","height":1118,"gridref_letters":"NN","gridref_eastings":"90300","gridref_northings":"98961","latlng_lat":57.068561,"latlng_lng":-3.810856,"smcid":"M036","metoffice_loc_id":"353408","region":"Deeside to Speyside - The Cairngorms","meaning":"Peak of wind"},{"name":"Aonach Beag","height":1116,"gridref_letters":"NN","gridref_eastings":"45786","gridref_northings":"74190","latlng_lat":56.833496,"latlng_lng":-4.529181,"smcid":"M037","metoffice_loc_id":"350118","region":"Loch Linnhe to Loch Ericht","meaning":"Little hill"},{"name":"Stob Coire an Laoigh","height":1116,"gridref_letters":"NN","gridref_eastings":"23984","gridref_northings":"72532","latlng_lat":56.810877,"latlng_lng":-4.884891,"smcid":"M038","metoffice_loc_id":"353687","region":"Loch Linnhe to Loch Ericht","meaning":"Peak of the corrie of the calf"},{"name":"Stob Coire Easain","height":1115,"gridref_letters":"NN","gridref_eastings":"30802","gridref_northings":"73065","latlng_lat":56.81819,"latlng_lng":-4.77371,"smcid":"M039","metoffice_loc_id":"353688","region":"Loch Linnhe to Loch Ericht","meaning":"Peak of the corrie of the little waterfall"},{"name":"Monadh Mor","height":1113,"gridref_letters":"NN","gridref_eastings":"93864","gridref_northings":"94216","latlng_lat":57.02679,"latlng_lng":-3.750102,"smcid":"M040","metoffice_loc_id":"352661","region":"Deeside to Speyside - The Cairngorms","meaning":"Big hill"},{"name":"Tom a' Choinich","height":1112,"gridref_letters":"NH","gridref_eastings":"16402","gridref_northings":"27335","latlng_lat":57.299554,"latlng_lng":-5.048962,"smcid":"M041","metoffice_loc_id":"353934","region":"Glen Shiel to Loch Mullardoch","meaning":"Hill of the moss"},{"name":"Carn a' Choire Boidheach","height":1110,"gridref_letters":"NO","gridref_eastings":"22673","gridref_northings":"84557","latlng_lat":56.945773,"latlng_lng":-3.272707,"smcid":"M042","metoffice_loc_id":"350775","region":"Glen Shee to Glen Esk","meaning":"Hill of the beautiful corrie"},{"name":"Sgurr Mor","height":1110,"gridref_letters":"NH","gridref_eastings":"20324","gridref_northings":"71818","latlng_lat":57.700134,"latlng_lng":-5.016748,"smcid":"M043","metoffice_loc_id":"353435","region":"Loch Maree to Loch Broom","meaning":"Big peak"},{"name":"Sgurr nan Conbhairean","height":1109,"gridref_letters":"NH","gridref_eastings":"12988","gridref_northings":"13895","latlng_lat":57.177613,"latlng_lng":-5.095407,"smcid":"M044","metoffice_loc_id":"353450","region":"Glen Shiel to Loch Mullardoch","meaning":"Peak of the keeper of the hounds"},{"name":"Meall a' Bhuiridh","height":1108,"gridref_letters":"NN","gridref_eastings":"25066","gridref_northings":"50346","latlng_lat":56.612218,"latlng_lng":-4.852078,"smcid":"M045","metoffice_loc_id":"352576","region":"Rannoch Moor to Loch Linnhe","meaning":"Hill of the bellowing (of stags)"},{"name":"Stob a' Choire Mheadhoin","height":1105,"gridref_letters":"NN","gridref_eastings":"31651","gridref_northings":"73644","latlng_lat":56.823693,"latlng_lng":-4.7602,"smcid":"M046","metoffice_loc_id":"353678","region":"Loch Linnhe to Loch Ericht","meaning":"Peak of the middle corrie"},{"name":"Beinn Ghlas","height":1103,"gridref_letters":"NN","gridref_eastings":"62529","gridref_northings":"40464","latlng_lat":56.536005,"latlng_lng":-4.236977,"smcid":"M047","metoffice_loc_id":"350327","region":"Loch Tay to Rannoch Moor","meaning":"Greenish-grey hill"},{"name":"Beinn Eibhinn","height":1102,"gridref_letters":"NN","gridref_eastings":"44965","gridref_northings":"73302","latlng_lat":56.825254,"latlng_lng":-4.542082,"smcid":"M048","metoffice_loc_id":"350322","region":"Loch Linnhe to Loch Ericht","meaning":"Delightful hill"},{"name":"Mullach Fraoch-choire","height":1102,"gridref_letters":"NH","gridref_eastings":"09489","gridref_northings":"17159","latlng_lat":57.20545,"latlng_lng":-5.155691,"smcid":"M049","metoffice_loc_id":"352719","region":"Glen Shiel to Loch Mullardoch","meaning":"Heather-corrie peak"},{"name":"Creise","height":1100,"gridref_letters":"NN","gridref_eastings":"23855","gridref_northings":"50645","latlng_lat":56.614449,"latlng_lng":-4.871979,"smcid":"M050","metoffice_loc_id":"353632","region":"Rannoch Moor to Loch Linnhe","meaning":"Unknown"},{"name":"Sgurr a' Mhaim","height":1099,"gridref_letters":"NN","gridref_eastings":"16465","gridref_northings":"66730","latlng_lat":56.75592,"latlng_lng":-5.00369,"smcid":"M051","metoffice_loc_id":"353419","region":"Loch Linnhe to Loch Ericht","meaning":"Peak of the large rounded hill"},{"name":"Sgurr Choinnich Mor","height":1094,"gridref_letters":"NN","gridref_eastings":"22772","gridref_northings":"71419","latlng_lat":56.800431,"latlng_lng":-4.903943,"smcid":"M052","metoffice_loc_id":"353427","region":"Loch Linnhe to Loch Ericht","meaning":"Big peak of the moss"},{"name":"Sgurr nan Clach Geala","height":1093,"gridref_letters":"NH","gridref_eastings":"18428","gridref_northings":"71474","latlng_lat":57.696287,"latlng_lng":-5.048238,"smcid":"M053","metoffice_loc_id":"353447","region":"Loch Maree to Loch Broom","meaning":"Peak of the white stones"},{"name":"Bynack More","height":1090,"gridref_letters":"NJ","gridref_eastings":"04190","gridref_northings":"06373","latlng_lat":57.13822,"latlng_lng":-3.584716,"smcid":"M054","metoffice_loc_id":"350704","region":"Deeside to Speyside - The Cairngorms","meaning":"Obscure"},{"name":"Stob Ghabhar","height":1090,"gridref_letters":"NN","gridref_eastings":"23017","gridref_northings":"45515","latlng_lat":56.568103,"latlng_lng":-4.882099,"smcid":"M055","metoffice_loc_id":"353694","region":"Rannoch Moor to Loch Linnhe","meaning":"Goat peak"},{"name":"Beinn a' Chlachair","height":1087,"gridref_letters":"NN","gridref_eastings":"47122","gridref_northings":"78155","latlng_lat":56.869525,"latlng_lng":-4.509684,"smcid":"M056","metoffice_loc_id":"350305","region":"Loch Linnhe to Loch Ericht","meaning":"Stonemason's hill"},{"name":"Beinn Dearg","height":1084,"gridref_letters":"NH","gridref_eastings":"25933","gridref_northings":"81183","latlng_lat":57.78635,"latlng_lng":-4.929557,"smcid":"M057","metoffice_loc_id":"350318","region":"Loch Broom to the Cromarty Firth","meaning":"Red hill"},{"name":"Beinn a' Chaorainn","height":1083,"gridref_letters":"NJ","gridref_eastings":"04515","gridref_northings":"01363","latlng_lat":57.093299,"latlng_lng":-3.577435,"smcid":"M058","metoffice_loc_id":"350303","region":"Deeside to Speyside - The Cairngorms","meaning":"Hill of the rowan"},{"name":"Schiehallion","height":1083,"gridref_letters":"NN","gridref_eastings":"71385","gridref_northings":"54769","latlng_lat":56.666942,"latlng_lng":-4.100213,"smcid":"M059","metoffice_loc_id":"353377","region":"Loch Tay to Rannoch Moor","meaning":"The fairly hill of the Caledonians"},{"name":"Sgurr a' Choire Ghlais","height":1083,"gridref_letters":"NH","gridref_eastings":"25835","gridref_northings":"43056","latlng_lat":57.444288,"latlng_lng":-4.903757,"smcid":"M060","metoffice_loc_id":"353416","region":"Loch Mullardoch to Glen Carron","meaning":"Peak of the greenish-grey corrie"},{"name":"Beinn a' Chreachain","height":1081,"gridref_letters":"NN","gridref_eastings":"37387","gridref_northings":"44075","latlng_lat":56.560382,"latlng_lng":-4.647618,"smcid":"M061","metoffice_loc_id":"350309","region":"Loch Tay to Rannoch Moor","meaning":"Hill of the rock, or hill of the clamshell"},{"name":"Beinn Heasgarnich","height":1078,"gridref_letters":"NN","gridref_eastings":"41380","gridref_northings":"38339","latlng_lat":56.510272,"latlng_lng":-4.579218,"smcid":"M062","metoffice_loc_id":"350328","region":"Loch Tay to Rannoch Moor","meaning":"Perhaps sheltering or peaceful hill"},{"name":"Ben Starav","height":1078,"gridref_letters":"NN","gridref_eastings":"12573","gridref_northings":"42716","latlng_lat":56.538939,"latlng_lng":-5.049798,"smcid":"M063","metoffice_loc_id":"350379","region":"Rannoch Moor to Loch Linnhe","meaning":"Unknown"},{"name":"Beinn Dorain","height":1076,"gridref_letters":"NN","gridref_eastings":"32555","gridref_northings":"37857","latlng_lat":56.502888,"latlng_lng":-4.722142,"smcid":"M064","metoffice_loc_id":"350320","region":"Loch Tay to Rannoch Moor","meaning":"Gaelic dobhran, hill of the streamlet"},{"name":"Stob Coire Sgreamhach","height":1072,"gridref_letters":"NN","gridref_eastings":"15487","gridref_northings":"53665","latlng_lat":56.638322,"latlng_lng":-5.010285,"smcid":"M065","metoffice_loc_id":"353689","region":"Rannoch Moor to Loch Linnhe","meaning":"Peak of the dreadful corrie"},{"name":"Braigh Coire Chruinn-bhalgain","height":1070,"gridref_letters":"NN","gridref_eastings":"94563","gridref_northings":"72403","latlng_lat":56.831083,"latlng_lng":-3.729505,"smcid":"M066","metoffice_loc_id":"350562","region":"Drumochter to Glen Shee","meaning":"Upland of the corrie of the round blisters"},{"name":"An Socach","height":1069,"gridref_letters":"NH","gridref_eastings":"10061","gridref_northings":"33274","latlng_lat":57.350229,"latlng_lng":-5.158603,"smcid":"M067","metoffice_loc_id":"350102","region":"Loch Mullardoch to Glen Carron","meaning":"The projecting place, or snout"},{"name":"Meall Corranaich","height":1069,"gridref_letters":"NN","gridref_eastings":"61534","gridref_northings":"41047","latlng_lat":56.540946,"latlng_lng":-4.253469,"smcid":"M068","metoffice_loc_id":"352582","region":"Loch Tay to Rannoch Moor","meaning":"Notched, prickly hill"},{"name":"Glas Maol","height":1068,"gridref_letters":"NO","gridref_eastings":"16699","gridref_northings":"76576","latlng_lat":56.873059,"latlng_lng":-3.368236,"smcid":"M069","metoffice_loc_id":"351578","region":"Glen Shee to Glen Esk","meaning":"Greenish grey bare hill"},{"name":"Sgurr Fhuaran","height":1067,"gridref_letters":"NG","gridref_eastings":"97851","gridref_northings":"16677","latlng_lat":57.196142,"latlng_lng":-5.347616,"smcid":"M070","metoffice_loc_id":"353431","region":"Glen Shiel to Loch Mullardoch","meaning":"Obscure"},{"name":"Cairn of Claise","height":1064,"gridref_letters":"NO","gridref_eastings":"18548","gridref_northings":"78890","latlng_lat":56.894178,"latlng_lng":-3.338654,"smcid":"M071","metoffice_loc_id":"350715","region":"Glen Shee to Glen Esk","meaning":"Hill of the green grassy place"},{"name":"Bidean a' Ghlas Thuill (An Teallach)","height":1062,"gridref_letters":"NH","gridref_eastings":"06896","gridref_northings":"84366","latlng_lat":57.807098,"latlng_lng":-5.251767,"smcid":"M072","metoffice_loc_id":"350421","region":"Loch Maree to Loch Broom","meaning":"Peak of the greenish-grey hollow"},{"name":"Sgurr Fiona (An Teallach)","height":1060,"gridref_letters":"NH","gridref_eastings":"06406","gridref_northings":"83679","latlng_lat":57.800726,"latlng_lng":-5.259443,"smcid":"M073","metoffice_loc_id":"353433","region":"Loch Maree to Loch Broom","meaning":"Light coloured peak, or perhaps peak of wine"},{"name":"Na Gruagaichean","height":1056,"gridref_letters":"NN","gridref_eastings":"20307","gridref_northings":"65200","latlng_lat":56.743687,"latlng_lng":-4.939875,"smcid":"M074","metoffice_loc_id":"352734","region":"Loch Linnhe to Loch Ericht","meaning":"The maidens"},{"name":"Spidean a Choire Leith (Liathach)","height":1055,"gridref_letters":"NG","gridref_eastings":"92935","gridref_northings":"57970","latlng_lat":57.564198,"latlng_lng":-5.463592,"smcid":"M075","metoffice_loc_id":"353618","region":"Glen Carron to Loch Maree","meaning":"Peak of the grey corrie"},{"name":"Stob Poite Coire Ardair","height":1054,"gridref_letters":"NN","gridref_eastings":"42885","gridref_northings":"88844","latlng_lat":56.964037,"latlng_lng":-4.585745,"smcid":"M076","metoffice_loc_id":"353696","region":"Speyside to Great Glen","meaning":"Peak of the pot of the high corrie"},{"name":"Toll Creagach","height":1054,"gridref_letters":"NH","gridref_eastings":"19401","gridref_northings":"28280","latlng_lat":57.309227,"latlng_lng":-4.999953,"smcid":"M077","metoffice_loc_id":"353931","region":"Glen Shiel to Loch Mullardoch","meaning":"Rocky hollow"},{"name":"Sgurr a' Chaorachain","height":1053,"gridref_letters":"NH","gridref_eastings":"08749","gridref_northings":"44737","latlng_lat":57.452492,"latlng_lng":-5.1893,"smcid":"M078","metoffice_loc_id":"353415","region":"Loch Mullardoch to Glen Carron","meaning":"Peak of the little field of the berries"},{"name":"Beinn a' Chaorainn","height":1052,"gridref_letters":"NN","gridref_eastings":"38606","gridref_northings":"85064","latlng_lat":56.928643,"latlng_lng":-4.653628,"smcid":"M079","metoffice_loc_id":"350304","region":"Speyside to Great Glen","meaning":"Hill of the rowan"},{"name":"Glas Tulaichean","height":1051,"gridref_letters":"NO","gridref_eastings":"05104","gridref_northings":"76012","latlng_lat":56.865766,"latlng_lng":-3.55818,"smcid":"M080","metoffice_loc_id":"351579","region":"Drumochter to Glen Shee","meaning":"From glas-thulchan, green hills"},{"name":"Geal Charn","height":1049,"gridref_letters":"NN","gridref_eastings":"50432","gridref_northings":"81181","latlng_lat":56.897763,"latlng_lng":-4.457236,"smcid":"M081","metoffice_loc_id":"351552","region":"Loch Linnhe to Loch Ericht","meaning":"White hill"},{"name":"Sgurr Fuar-thuill","height":1049,"gridref_letters":"NH","gridref_eastings":"23580","gridref_northings":"43754","latlng_lat":57.44968,"latlng_lng":-4.94178,"smcid":"M082","metoffice_loc_id":"353432","region":"Loch Mullardoch to Glen Carron","meaning":"Peak of the cold hollow"},{"name":"Carn an t-Sagairt Mor","height":1047,"gridref_letters":"NO","gridref_eastings":"20810","gridref_northings":"84280","latlng_lat":56.942973,"latlng_lng":-3.303227,"smcid":"M083","metoffice_loc_id":"350780","region":"Glen Shee to Glen Esk","meaning":"Big hill of the priest"},{"name":"Creag Mhor","height":1047,"gridref_letters":"NN","gridref_eastings":"39151","gridref_northings":"36110","latlng_lat":56.48951,"latlng_lng":-4.614021,"smcid":"M084","metoffice_loc_id":"351068","region":"Loch Tay to Rannoch Moor","meaning":"Big rock"},{"name":"Ben Wyvis, Glas Leathad Mor","height":1046,"gridref_letters":"NH","gridref_eastings":"46295","gridref_northings":"68377","latlng_lat":57.678895,"latlng_lng":-4.579282,"smcid":"M085","metoffice_loc_id":"351577","region":"Loch Broom to the Cromarty Firth","meaning":"Gaelic fuathas, meaning awesome hill"},{"name":"Chno Dearg","height":1046,"gridref_letters":"NN","gridref_eastings":"37741","gridref_northings":"74115","latlng_lat":56.830086,"latlng_lng":-4.660831,"smcid":"M086","metoffice_loc_id":"350911","region":"Loch Linnhe to Loch Ericht","meaning":"Red hill"},{"name":"Cruach Ardrain","height":1046,"gridref_letters":"NN","gridref_eastings":"40927","gridref_northings":"21215","latlng_lat":56.356429,"latlng_lng":-4.576151,"smcid":"M087","metoffice_loc_id":"351115","region":"Loch Fyne to Loch Tay","meaning":"Stack of the high part"},{"name":"Beinn Iutharn Mhor","height":1045,"gridref_letters":"NO","gridref_eastings":"04566","gridref_northings":"79279","latlng_lat":56.894994,"latlng_lng":-3.568229,"smcid":"M088","metoffice_loc_id":"350330","region":"Drumochter to Glen Shee","meaning":"Big hill of the edge-point"},{"name":"Meall nan Tarmachan","height":1044,"gridref_letters":"NN","gridref_eastings":"58518","gridref_northings":"38998","latlng_lat":56.521655,"latlng_lng":-4.301343,"smcid":"M089","metoffice_loc_id":"352595","region":"Loch Tay to Rannoch Moor","meaning":"Hill of the ptarmigan"},{"name":"Stob Coire 'an Albannaich","height":1044,"gridref_letters":"NN","gridref_eastings":"16952","gridref_northings":"44305","latlng_lat":56.554921,"latlng_lng":-4.97981,"smcid":"M090","metoffice_loc_id":"353685","region":"Rannoch Moor to Loch Linnhe","meaning":"Peak of the corrie of the Scotsmen"},{"name":"Carn Mairg","height":1041,"gridref_letters":"NN","gridref_eastings":"68491","gridref_northings":"51263","latlng_lat":56.634662,"latlng_lng":-4.14561,"smcid":"M091","metoffice_loc_id":"350794","region":"Loch Tay to Rannoch Moor","meaning":"Hill of sorrow"},{"name":"Sgurr na Ciche","height":1040,"gridref_letters":"NM","gridref_eastings":"90223","gridref_northings":"96684","latlng_lat":57.013452,"latlng_lng":-5.456854,"smcid":"M092","metoffice_loc_id":"353440","region":"Loch Linnhe to Glen Shiel","meaning":"Peak of the breast"},{"name":"Meall Ghaordaidh","height":1039,"gridref_letters":"NN","gridref_eastings":"51442","gridref_northings":"39704","latlng_lat":56.525809,"latlng_lng":-4.416654,"smcid":"M093","metoffice_loc_id":"352586","region":"Loch Tay to Rannoch Moor","meaning":"Gaelic gairdean, meaning a shoulder"},{"name":"Beinn Achaladair","height":1038,"gridref_letters":"NN","gridref_eastings":"34468","gridref_northings":"43242","latlng_lat":56.551887,"latlng_lng":-4.694525,"smcid":"M094","metoffice_loc_id":"350311","region":"Loch Tay to Rannoch Moor","meaning":"From Celtic meaning the field of hard water"},{"name":"Carn a' Mhaim","height":1037,"gridref_letters":"NN","gridref_eastings":"99457","gridref_northings":"95199","latlng_lat":57.036871,"latlng_lng":-3.6584,"smcid":"M095","metoffice_loc_id":"350777","region":"Deeside to Speyside - The Cairngorms","meaning":"Hill of the pass"},{"name":"Sgurr a' Bhealaich Dheirg","height":1036,"gridref_letters":"NH","gridref_eastings":"03517","gridref_northings":"14360","latlng_lat":57.177825,"latlng_lng":-5.252177,"smcid":"M096","metoffice_loc_id":"353414","region":"Glen Shiel to Loch Mullardoch","meaning":"Peak of the red pass"},{"name":"Gleouraich","height":1035,"gridref_letters":"NH","gridref_eastings":"03945","gridref_northings":"05345","latlng_lat":57.097163,"latlng_lng":-5.238035,"smcid":"M097","metoffice_loc_id":"351606","region":"Loch Linnhe to Glen Shiel","meaning":"Possibly uproar or noise"},{"name":"Carn Dearg","height":1034,"gridref_letters":"NN","gridref_eastings":"50416","gridref_northings":"76444","latlng_lat":56.855241,"latlng_lng":-4.454709,"smcid":"M098","metoffice_loc_id":"350784","region":"Loch Linnhe to Loch Ericht","meaning":"Red hill"},{"name":"Am Bodach","height":1032,"gridref_letters":"NN","gridref_eastings":"17637","gridref_northings":"65097","latlng_lat":56.741727,"latlng_lng":-4.983393,"smcid":"M099","metoffice_loc_id":"350082","region":"Loch Linnhe to Loch Ericht","meaning":"The old man"},{"name":"Beinn Fhada","height":1032,"gridref_letters":"NH","gridref_eastings":"01855","gridref_northings":"19253","latlng_lat":57.220993,"latlng_lng":-5.283518,"smcid":"M100","metoffice_loc_id":"350324","region":"Glen Shiel to Loch Mullardoch","meaning":"Long hill"},{"name":"Ben Oss","height":1029,"gridref_letters":"NN","gridref_eastings":"28761","gridref_northings":"25348","latlng_lat":56.389272,"latlng_lng":-4.775488,"smcid":"M101","metoffice_loc_id":"350378","region":"Loch Fyne to Loch Tay","meaning":"Loch-outlet hill"},{"name":"Carn an Righ","height":1029,"gridref_letters":"NO","gridref_eastings":"02871","gridref_northings":"77266","latlng_lat":56.876565,"latlng_lng":-3.595272,"smcid":"M102","metoffice_loc_id":"350779","region":"Drumochter to Glen Shee","meaning":"Hill of the king"},{"name":"Carn Gorm","height":1029,"gridref_letters":"NN","gridref_eastings":"63514","gridref_northings":"50069","latlng_lat":56.622519,"latlng_lng":-4.226052,"smcid":"M103","metoffice_loc_id":"350790","region":"Loch Tay to Rannoch Moor","meaning":"Blue hill"},{"name":"Sgurr a' Mhaoraich","height":1027,"gridref_letters":"NG","gridref_eastings":"98395","gridref_northings":"06551","latlng_lat":57.105573,"latlng_lng":-5.330434,"smcid":"M104","metoffice_loc_id":"353420","region":"Loch Linnhe to Glen Shiel","meaning":"Peak of the shellfish"},{"name":"Sgurr na Ciste Duibhe","height":1027,"gridref_letters":"NG","gridref_eastings":"98399","gridref_northings":"14953","latlng_lat":57.180923,"latlng_lng":-5.337151,"smcid":"M105","metoffice_loc_id":"353441","region":"Glen Shiel to Loch Mullardoch","meaning":"Peak of the black chest"},{"name":"Ben Challum","height":1025,"gridref_letters":"NN","gridref_eastings":"38685","gridref_northings":"32234","latlng_lat":56.454565,"latlng_lng":-4.619183,"smcid":"M106","metoffice_loc_id":"350366","region":"Loch Tay to Rannoch Moor","meaning":"Malcolm's hill"},{"name":"Sgorr Dhearg (Beinn a' Bheithir)","height":1024,"gridref_letters":"NN","gridref_eastings":"05684","gridref_northings":"55846","latlng_lat":56.653921,"latlng_lng":-5.17151,"smcid":"M107","metoffice_loc_id":"353410","region":"Rannoch Moor to Loch Linnhe","meaning":"Red peak"},{"name":"Mullach an Rathain (Liathach)","height":1023,"gridref_letters":"NG","gridref_eastings":"91185","gridref_northings":"57691","latlng_lat":57.560891,"latlng_lng":-5.49255,"smcid":"M108","metoffice_loc_id":"352716","region":"Glen Carron to Loch Maree","meaning":"Summit of the row of pinnacles"},{"name":"Aonach air Chrith","height":1021,"gridref_letters":"NH","gridref_eastings":"05103","gridref_northings":"08354","latlng_lat":57.12464,"latlng_lng":-5.221291,"smcid":"M109","metoffice_loc_id":"350116","region":"Loch Linnhe to Glen Shiel","meaning":"Trembling hill"},{"name":"Buachaille Etive Mor, Stob Dearg","height":1021,"gridref_letters":"NN","gridref_eastings":"22265","gridref_northings":"54254","latlng_lat":56.646229,"latlng_lng":-4.900336,"smcid":"M110","metoffice_loc_id":"353691","region":"Rannoch Moor to Loch Linnhe","meaning":"Big herdsman of Etive, red peak"},{"name":"Ladhar Bheinn","height":1020,"gridref_letters":"NG","gridref_eastings":"82400","gridref_northings":"03983","latlng_lat":57.075263,"latlng_lng":-5.591745,"smcid":"M111","metoffice_loc_id":"352189","region":"Loch Linnhe to Glen Shiel","meaning":"Hoof or claw hill"},{"name":"Beinn Bheoil","height":1019,"gridref_letters":"NN","gridref_eastings":"51717","gridref_northings":"71722","latlng_lat":56.813276,"latlng_lng":-4.430646,"smcid":"M112","metoffice_loc_id":"350313","region":"Loch Linnhe to Loch Ericht","meaning":"Hill of the mouth"},{"name":"Carn an Tuirc","height":1019,"gridref_letters":"NO","gridref_eastings":"17454","gridref_northings":"80483","latlng_lat":56.908283,"latlng_lng":-3.357125,"smcid":"M113","metoffice_loc_id":"350781","region":"Glen Shee to Glen Esk","meaning":"Hill of the boar"},{"name":"Mullach Clach a' Bhlair","height":1019,"gridref_letters":"NN","gridref_eastings":"88286","gridref_northings":"92702","latlng_lat":57.011879,"latlng_lng":-3.841271,"smcid":"M114","metoffice_loc_id":"352717","region":"Deeside to Speyside - The Cairngorms","meaning":"Summit of the stone of the plain"},{"name":"Mullach Coire Mhic Fhearchair","height":1018,"gridref_letters":"NH","gridref_eastings":"05206","gridref_northings":"73511","latlng_lat":57.709022,"latlng_lng":-5.271342,"smcid":"M115","metoffice_loc_id":"352718","region":"Loch Maree to Loch Broom","meaning":"Summit of the corrie of Farquhar's son"},{"name":"Garbh Chioch Mhor","height":1013,"gridref_letters":"NM","gridref_eastings":"90955","gridref_northings":"96101","latlng_lat":57.008556,"latlng_lng":-5.444338,"smcid":"M116","metoffice_loc_id":"351538","region":"Loch Linnhe to Glen Shiel","meaning":"Big rough place of the breast"},{"name":"Cairn Bannoch","height":1012,"gridref_letters":"NO","gridref_eastings":"22288","gridref_northings":"82554","latlng_lat":56.927719,"latlng_lng":-3.278402,"smcid":"M117","metoffice_loc_id":"350712","region":"Glen Shee to Glen Esk","meaning":"Hill of the point"},{"name":"Ben Ime","height":1011,"gridref_letters":"NN","gridref_eastings":"25495","gridref_northings":"08491","latlng_lat":56.23682,"latlng_lng":-4.817159,"smcid":"M118","metoffice_loc_id":"350329","region":"Loch Fyne to Loch Tay","meaning":"Butter hill"},{"name":"Beinn Udlamain","height":1011,"gridref_letters":"NN","gridref_eastings":"57949","gridref_northings":"73978","latlng_lat":56.835472,"latlng_lng":-4.329913,"smcid":"M119","metoffice_loc_id":"350343","region":"Loch Ericht to Drumochter","meaning":"Gloomy mountain"},{"name":"Beinn Eighe (Ruadh-stac Mor)","height":1010,"gridref_letters":"NG","gridref_eastings":"95142","gridref_northings":"61152","latlng_lat":57.593735,"latlng_lng":-5.429454,"smcid":"M120","metoffice_loc_id":"353276","region":"Glen Carron to Loch Maree","meaning":"File hill (big red peak)"},{"name":"The Saddle","height":1010,"gridref_letters":"NG","gridref_eastings":"93610","gridref_northings":"13124","latlng_lat":57.162395,"latlng_lng":-5.414721,"smcid":"M121","metoffice_loc_id":"353870","region":"Loch Linnhe to Glen Shiel","meaning":"The Saddle"},{"name":"Sgurr an Doire Leathain","height":1010,"gridref_letters":"NH","gridref_eastings":"01524","gridref_northings":"09888","latlng_lat":57.136861,"latlng_lng":-5.28153,"smcid":"M122","metoffice_loc_id":"353422","region":"Loch Linnhe to Glen Shiel","meaning":"Peak of the broad thicket"},{"name":"Sgurr Eilde Mor","height":1010,"gridref_letters":"NN","gridref_eastings":"23053","gridref_northings":"65789","latlng_lat":56.750024,"latlng_lng":-4.895453,"smcid":"M123","metoffice_loc_id":"353430","region":"Loch Linnhe to Loch Ericht","meaning":"Big peak of the hind"},{"name":"Beinn Dearg","height":1008,"gridref_letters":"NN","gridref_eastings":"85296","gridref_northings":"77800","latlng_lat":56.877346,"latlng_lng":-3.883719,"smcid":"M124","metoffice_loc_id":"350319","region":"Drumochter to Glen Shee","meaning":"Red hill"},{"name":"An Sgarsoch","height":1006,"gridref_letters":"NN","gridref_eastings":"93334","gridref_northings":"83665","latlng_lat":56.931928,"latlng_lng":-3.754367,"smcid":"M125","metoffice_loc_id":"350099","region":"Drumochter to Glen Shee","meaning":"The place of the sharp rocks"},{"name":"Carn Liath","height":1006,"gridref_letters":"NN","gridref_eastings":"47227","gridref_northings":"90326","latlng_lat":56.978784,"latlng_lng":-4.515305,"smcid":"M126","metoffice_loc_id":"350791","region":"Speyside to Great Glen","meaning":"Grey hill"},{"name":"Maoile Lunndaidh","height":1005,"gridref_letters":"NH","gridref_eastings":"13506","gridref_northings":"45853","latlng_lat":57.464477,"latlng_lng":-5.111002,"smcid":"M127","metoffice_loc_id":"352523","region":"Loch Mullardoch to Glen Carron","meaning":"Bare hill of the wet place"},{"name":"Beinn Fhionnlaidh","height":1005,"gridref_letters":"NH","gridref_eastings":"11560","gridref_northings":"28274","latlng_lat":57.306004,"latlng_lng":-5.129911,"smcid":"M128","metoffice_loc_id":"350326","region":"Glen Shiel to Loch Mullardoch","meaning":"Finlay's hill"},{"name":"Beinn an Dothaidh","height":1004,"gridref_letters":"NN","gridref_eastings":"33179","gridref_northings":"40866","latlng_lat":56.530113,"latlng_lng":-4.713947,"smcid":"M129","metoffice_loc_id":"350312","region":"Loch Tay to Rannoch Moor","meaning":"Hill of the scorching or singeing"},{"name":"The Devil's Point","height":1004,"gridref_letters":"NN","gridref_eastings":"97610","gridref_northings":"95117","latlng_lat":57.035728,"latlng_lng":-3.688788,"smcid":"M130","metoffice_loc_id":"353855","region":"Deeside to Speyside - The Cairngorms","meaning":"Penis of the demon"},{"name":"Sgurr an Lochain","height":1004,"gridref_letters":"NH","gridref_eastings":"00580","gridref_northings":"10421","latlng_lat":57.141232,"latlng_lng":-5.297527,"smcid":"M131","metoffice_loc_id":"353423","region":"Loch Linnhe to Glen Shiel","meaning":"Peak of the little loch"},{"name":"Sgurr Mor","height":1003,"gridref_letters":"NM","gridref_eastings":"96535","gridref_northings":"98040","latlng_lat":57.028437,"latlng_lng":-5.354188,"smcid":"M132","metoffice_loc_id":"353434","region":"Loch Linnhe to Glen Shiel","meaning":"Big peak"},{"name":"Sail Chaorainn","height":1002,"gridref_letters":"NH","gridref_eastings":"13320","gridref_northings":"15462","latlng_lat":57.191804,"latlng_lng":-5.091098,"smcid":"M133","metoffice_loc_id":"353556","region":"Glen Shiel to Loch Mullardoch","meaning":"Hill of the rowan"},{"name":"Sgurr na Carnach","height":1002,"gridref_letters":"NG","gridref_eastings":"97714","gridref_northings":"15890","latlng_lat":57.189025,"latlng_lng":-5.349224,"smcid":"M134","metoffice_loc_id":"353439","region":"Glen Shiel to Loch Mullardoch","meaning":"Stony peak"},{"name":"Aonach Mheadhoin","height":1001,"gridref_letters":"NH","gridref_eastings":"04885","gridref_northings":"13766","latlng_lat":57.173082,"latlng_lng":-5.229121,"smcid":"M135","metoffice_loc_id":"350120","region":"Glen Shiel to Loch Mullardoch","meaning":"Middle hill"},{"name":"Meall Greigh","height":1001,"gridref_letters":"NN","gridref_eastings":"67401","gridref_northings":"43808","latlng_lat":56.567426,"latlng_lng":-4.159543,"smcid":"M136","metoffice_loc_id":"352589","region":"Loch Tay to Rannoch Moor","meaning":"Hill of horse studs"},{"name":"Sgorr Dhonuill (Beinn a' Bheithir)","height":1001,"gridref_letters":"NN","gridref_eastings":"04058","gridref_northings":"55540","latlng_lat":56.650499,"latlng_lng":-5.197757,"smcid":"M137","metoffice_loc_id":"353411","region":"Rannoch Moor to Loch Linnhe","meaning":"Donald's peak"},{"name":"Sgurr Breac","height":999,"gridref_letters":"NH","gridref_eastings":"15816","gridref_northings":"71120","latlng_lat":57.69205,"latlng_lng":-5.091722,"smcid":"M138","metoffice_loc_id":"353425","region":"Loch Maree to Loch Broom","meaning":"Speckled peak"},{"name":"Sgurr Choinnich","height":999,"gridref_letters":"NH","gridref_eastings":"07625","gridref_northings":"44627","latlng_lat":57.451026,"latlng_lng":-5.207916,"smcid":"M139","metoffice_loc_id":"353426","region":"Loch Mullardoch to Glen Carron","meaning":"Moss peak"},{"name":"Stob Ban","height":999,"gridref_letters":"NN","gridref_eastings":"14776","gridref_northings":"65442","latlng_lat":56.743697,"latlng_lng":-5.030343,"smcid":"M140","metoffice_loc_id":"353681","region":"Loch Linnhe to Loch Ericht","meaning":"White peak"},{"name":"Ben More Assynt","height":998,"gridref_letters":"NC","gridref_eastings":"31831","gridref_northings":"20151","latlng_lat":58.138173,"latlng_lng":-4.858192,"smcid":"M141","metoffice_loc_id":"350376","region":"Loch Broom to the Pentland Firth","meaning":"Big hill of Assynt (Norse: ass, a rocky ridge)"},{"name":"Broad Cairn","height":998,"gridref_letters":"NO","gridref_eastings":"24056","gridref_northings":"81567","latlng_lat":56.919148,"latlng_lng":-3.249066,"smcid":"M142","metoffice_loc_id":"350616","region":"Glen Shee to Glen Esk","meaning":"Broad cairn"},{"name":"Stob Diamh","height":998,"gridref_letters":"NN","gridref_eastings":"09482","gridref_northings":"30858","latlng_lat":56.431327,"latlng_lng":-5.091319,"smcid":"M143","metoffice_loc_id":"353692","region":"Rannoch Moor to Loch Linnhe","meaning":"Peak of the stag"},{"name":"A' Chailleach","height":997,"gridref_letters":"NH","gridref_eastings":"13620","gridref_northings":"71414","latlng_lat":57.693782,"latlng_lng":-5.12873,"smcid":"M144","metoffice_loc_id":"350024","region":"Loch Maree to Loch Broom","meaning":"The old woman"},{"name":"Glas Bheinn Mhor","height":997,"gridref_letters":"NN","gridref_eastings":"15329","gridref_northings":"42984","latlng_lat":56.542434,"latlng_lng":-5.005236,"smcid":"M145","metoffice_loc_id":"351576","region":"Rannoch Moor to Loch Linnhe","meaning":"Big greenish-grey hill"},{"name":"Spidean Mialach","height":996,"gridref_letters":"NH","gridref_eastings":"06592","gridref_northings":"04306","latlng_lat":57.088964,"latlng_lng":-5.193614,"smcid":"M146","metoffice_loc_id":"353620","region":"Loch Linnhe to Glen Shiel","meaning":"Peak of deer or other wild animals"},{"name":"An Caisteal","height":995,"gridref_letters":"NN","gridref_eastings":"37873","gridref_northings":"19343","latlng_lat":56.3386,"latlng_lng":-4.624368,"smcid":"M147","metoffice_loc_id":"350094","region":"Loch Fyne to Loch Tay","meaning":"The castle"},{"name":"Carn an Fhidhleir","height":994,"gridref_letters":"NN","gridref_eastings":"90468","gridref_northings":"84184","latlng_lat":56.935919,"latlng_lng":-3.801661,"smcid":"M148","metoffice_loc_id":"350778","region":"Drumochter to Glen Shee","meaning":"Hill of the fiddler"},{"name":"Sgor na h-Ulaidh","height":994,"gridref_letters":"NN","gridref_eastings":"11116","gridref_northings":"51796","latlng_lat":56.619813,"latlng_lng":-5.080078,"smcid":"M149","metoffice_loc_id":"353409","region":"Rannoch Moor to Loch Linnhe","meaning":"Peak of the treasure"},{"name":"Spidean Coire nan Clach (Beinn Eighe)","height":993,"gridref_letters":"NG","gridref_eastings":"96615","gridref_northings":"59780","latlng_lat":57.582098,"latlng_lng":-5.403706,"smcid":"M150","metoffice_loc_id":"353619","region":"Glen Carron to Loch Maree","meaning":"Peak of the stony corrie"},{"name":"Sgurr na Ruaidhe","height":993,"gridref_letters":"NH","gridref_eastings":"28900","gridref_northings":"42615","latlng_lat":57.441497,"latlng_lng":-4.852465,"smcid":"M151","metoffice_loc_id":"353443","region":"Loch Mullardoch to Glen Carron","meaning":"Peak of the redness"},{"name":"Carn nan Gobhar (Glen Cannich)","height":992,"gridref_letters":"NH","gridref_eastings":"18188","gridref_northings":"34362","latlng_lat":57.363304,"latlng_lng":-5.024544,"smcid":"M152","metoffice_loc_id":"350798","region":"Loch Mullardoch to Glen Carron","meaning":"Hill of the goats"},{"name":"Carn nan Gobhar (Glen Strathfarrar)","height":992,"gridref_letters":"NH","gridref_eastings":"27303","gridref_northings":"43890","latlng_lat":57.452331,"latlng_lng":-4.879935,"smcid":"M153","metoffice_loc_id":"350797","region":"Loch Mullardoch to Glen Carron","meaning":"Hill of the goats"},{"name":"Sgurr Alasdair","height":992,"gridref_letters":"NG","gridref_eastings":"45002","gridref_northings":"20784","latlng_lat":57.206598,"latlng_lng":-6.224144,"smcid":"M154","metoffice_loc_id":"353421","region":"The Islands","meaning":"Alexander's peak (after Sherriff Alexander Nicholson)"},{"name":"Sgairneach Mhor","height":991,"gridref_letters":"NN","gridref_eastings":"59882","gridref_northings":"73130","latlng_lat":56.828447,"latlng_lng":-4.297792,"smcid":"M155","metoffice_loc_id":"353404","region":"Loch Ericht to Drumochter","meaning":"Big stony hillside"},{"name":"Beinn Eunaich","height":989,"gridref_letters":"NN","gridref_eastings":"13562","gridref_northings":"32797","latlng_lat":56.450352,"latlng_lng":-5.026639,"smcid":"M156","metoffice_loc_id":"350323","region":"Rannoch Moor to Loch Linnhe","meaning":"Fowling hill"},{"name":"Sgurr Ban (Letterewe)","height":989,"gridref_letters":"NH","gridref_eastings":"05581","gridref_northings":"74554","latlng_lat":57.718538,"latlng_lng":-5.265903,"smcid":"M157","metoffice_loc_id":"353424","region":"Loch Maree to Loch Broom","meaning":"White peak"},{"name":"Conival","height":987,"gridref_letters":"NC","gridref_eastings":"30330","gridref_northings":"19938","latlng_lat":58.135689,"latlng_lng":-4.883497,"smcid":"M158","metoffice_loc_id":"351001","region":"Loch Broom to the Pentland Firth","meaning":"Hill of the dog or hill of the meeting"},{"name":"Creag Leachach","height":987,"gridref_letters":"NO","gridref_eastings":"15468","gridref_northings":"74548","latlng_lat":56.854631,"latlng_lng":-3.387751,"smcid":"M159","metoffice_loc_id":"351066","region":"Glen Shee to Glen Esk","meaning":"Slabby rock"},{"name":"Druim Shionnach","height":987,"gridref_letters":"NH","gridref_eastings":"07440","gridref_northings":"08484","latlng_lat":57.126794,"latlng_lng":-5.182857,"smcid":"M160","metoffice_loc_id":"351255","region":"Loch Linnhe to Glen Shiel","meaning":"Ridge of the fox"},{"name":"Gulvain","height":987,"gridref_letters":"NN","gridref_eastings":"00267","gridref_northings":"87574","latlng_lat":56.936202,"latlng_lng":-5.284526,"smcid":"M161","metoffice_loc_id":"351704","region":"Loch Linnhe to Glen Shiel","meaning":"Gaelic gaorr (filth) or gaoir (noise)"},{"name":"Sgurr Mhor (Beinn Alligin)","height":986,"gridref_letters":"NG","gridref_eastings":"86565","gridref_northings":"61270","latlng_lat":57.59082,"latlng_lng":-5.572764,"smcid":"M162","metoffice_loc_id":"353436","region":"Glen Carron to Loch Maree","meaning":"Possibly jewelled hill"},{"name":"Lurg Mhor","height":986,"gridref_letters":"NH","gridref_eastings":"06481","gridref_northings":"40451","latlng_lat":57.413091,"latlng_lng":-5.22365,"smcid":"M163","metoffice_loc_id":"352463","region":"Loch Mullardoch to Glen Carron","meaning":"Big ridge stretching into the plain"},{"name":"Sgurr Dearg (The Inaccessible Pinnacle)","height":986,"gridref_letters":"NG","gridref_eastings":"44404","gridref_northings":"21566","latlng_lat":57.21327,"latlng_lng":-6.234819,"smcid":"M164","metoffice_loc_id":"353428","region":"The Islands","meaning":"Red peak"},{"name":"Ben Vorlich (by Loch Earn)","height":985,"gridref_letters":"NN","gridref_eastings":"62911","gridref_northings":"18916","latlng_lat":56.34268,"latlng_lng":-4.219464,"smcid":"M165","metoffice_loc_id":"350382","region":"Loch Fyne to Loch Tay","meaning":"Hill of the bay"},{"name":"An Gearanach","height":982,"gridref_letters":"NN","gridref_eastings":"18772","gridref_northings":"66989","latlng_lat":56.759143,"latlng_lng":-4.966203,"smcid":"M166","metoffice_loc_id":"350097","region":"Loch Linnhe to Loch Ericht","meaning":"The complainer"},{"name":"Mullach na Dheiragain","height":982,"gridref_letters":"NH","gridref_eastings":"08044","gridref_northings":"25917","latlng_lat":57.283399,"latlng_lng":-5.18635,"smcid":"M167","metoffice_loc_id":"352720","region":"Glen Shiel to Loch Mullardoch","meaning":"Perhaps summit of the hawk"},{"name":"Maol Chinn-dearg","height":981,"gridref_letters":"NH","gridref_eastings":"03221","gridref_northings":"08769","latlng_lat":57.12756,"latlng_lng":-5.252651,"smcid":"M168","metoffice_loc_id":"352525","region":"Loch Linnhe to Glen Shiel","meaning":"Bald red head"},{"name":"Meall nan Aighean","height":981,"gridref_letters":"NN","gridref_eastings":"69477","gridref_northings":"49668","latlng_lat":56.620618,"latlng_lng":-4.12874,"smcid":"M169","metoffice_loc_id":"352590","region":"Loch Tay to Rannoch Moor","meaning":"Big rock"},{"name":"Slioch - North Top","height":981,"gridref_letters":"NH","gridref_eastings":"00468","gridref_northings":"69076","latlng_lat":57.667176,"latlng_lng":-5.347047,"smcid":"M170","metoffice_loc_id":"353542","region":"Loch Maree to Loch Broom","meaning":"From the Gaelic sleacgh, a spear"},{"name":"Stob Coire a' Chairn","height":981,"gridref_letters":"NN","gridref_eastings":"18559","gridref_northings":"66062","latlng_lat":56.750744,"latlng_lng":-4.969025,"smcid":"M171","metoffice_loc_id":"353686","region":"Loch Linnhe to Loch Ericht","meaning":"Peak of the corrie of the cairn"},{"name":"Beinn a' Chochuill","height":980,"gridref_letters":"NN","gridref_eastings":"10978","gridref_northings":"32849","latlng_lat":56.44979,"latlng_lng":-5.068536,"smcid":"M172","metoffice_loc_id":"350308","region":"Rannoch Moor to Loch Linnhe","meaning":"Hill of the hood or shell"},{"name":"Ciste Dhubh","height":979,"gridref_letters":"NH","gridref_eastings":"06237","gridref_northings":"16619","latlng_lat":57.199243,"latlng_lng":-5.209016,"smcid":"M173","metoffice_loc_id":"350926","region":"Glen Shiel to Loch Mullardoch","meaning":"Black chest"},{"name":"Stob Coire Sgriodain","height":979,"gridref_letters":"NN","gridref_eastings":"35669","gridref_northings":"74380","latlng_lat":56.831736,"latlng_lng":-4.694917,"smcid":"M174","metoffice_loc_id":"353690","region":"Loch Linnhe to Loch Ericht","meaning":"Peak of the corrie of the scree"},{"name":"Beinn Dubhchraig","height":978,"gridref_letters":"NN","gridref_eastings":"30763","gridref_northings":"25494","latlng_lat":56.391304,"latlng_lng":-4.743194,"smcid":"M175","metoffice_loc_id":"350321","region":"Loch Fyne to Loch Tay","meaning":"Black-rock hill"},{"name":"Cona' Mheall","height":978,"gridref_letters":"NH","gridref_eastings":"27510","gridref_northings":"81641","latlng_lat":57.791068,"latlng_lng":-4.9034,"smcid":"M176","metoffice_loc_id":"350994","region":"Loch Broom to the Cromarty Firth","meaning":"Hill of the dog or hill of the meeting"},{"name":"Meall nan Ceapraichean","height":977,"gridref_letters":"NH","gridref_eastings":"25727","gridref_northings":"82547","latlng_lat":57.798505,"latlng_lng":-4.934011,"smcid":"M177","metoffice_loc_id":"352592","region":"Loch Broom to the Cromarty Firth","meaning":"Ceap, meaning a back or hilltop"},{"name":"Stob Ban","height":977,"gridref_letters":"NN","gridref_eastings":"26669","gridref_northings":"72394","latlng_lat":56.810647,"latlng_lng":-4.840876,"smcid":"M178","metoffice_loc_id":"353680","region":"Loch Linnhe to Loch Ericht","meaning":"White peak"},{"name":"A' Mharconaich","height":975,"gridref_letters":"NN","gridref_eastings":"60423","gridref_northings":"76292","latlng_lat":56.856993,"latlng_lng":-4.290668,"smcid":"M179","metoffice_loc_id":"350090","region":"Loch Ericht to Drumochter","meaning":"The horse place"},{"name":"Carn a' Gheoidh","height":975,"gridref_letters":"NO","gridref_eastings":"10703","gridref_northings":"76700","latlng_lat":56.873065,"latlng_lng":-3.466616,"smcid":"M180","metoffice_loc_id":"350776","region":"Drumochter to Glen Shee","meaning":"Hill of the goose"},{"name":"Carn Liath","height":975,"gridref_letters":"NN","gridref_eastings":"93606","gridref_northings":"69831","latlng_lat":56.80777,"latlng_lng":-3.744106,"smcid":"M181","metoffice_loc_id":"350792","region":"Drumochter to Glen Shee","meaning":"Grey hill"},{"name":"Stuc a' Chroin","height":975,"gridref_letters":"NN","gridref_eastings":"61746","gridref_northings":"17465","latlng_lat":56.329315,"latlng_lng":-4.237533,"smcid":"M182","metoffice_loc_id":"353754","region":"Loch Fyne to Loch Tay","meaning":"Peak of harm or danger"},{"name":"Beinn Sgritheall","height":974,"gridref_letters":"NG","gridref_eastings":"83587","gridref_northings":"12683","latlng_lat":57.153824,"latlng_lng":-5.579728,"smcid":"M183","metoffice_loc_id":"350338","region":"Loch Linnhe to Glen Shiel","meaning":"Probably scree or gravel hill"},{"name":"Ben Lomond","height":974,"gridref_letters":"NN","gridref_eastings":"36707","gridref_northings":"02862","latlng_lat":56.190284,"latlng_lng":-4.633008,"smcid":"M184","metoffice_loc_id":"350371","region":"Loch Fyne to Loch Tay","meaning":"Beacon hill"},{"name":"Sgurr a' Ghreadhaidh","height":973,"gridref_letters":"NG","gridref_eastings":"44524","gridref_northings":"23123","latlng_lat":57.227286,"latlng_lng":-6.234438,"smcid":"M185","metoffice_loc_id":"353417","region":"The Islands","meaning":"Peak of torment/anxiety"},{"name":"Meall Garbh","height":968,"gridref_letters":"NN","gridref_eastings":"64708","gridref_northings":"51685","latlng_lat":56.637372,"latlng_lng":-4.207456,"smcid":"M186","metoffice_loc_id":"352585","region":"Loch Tay to Rannoch Moor","meaning":"Rough hill"},{"name":"A' Mhaighdean","height":967,"gridref_letters":"NH","gridref_eastings":"00776","gridref_northings":"74912","latlng_lat":57.719644,"latlng_lng":-5.34672,"smcid":"M187","metoffice_loc_id":"350089","region":"Loch Maree to Loch Broom","meaning":"The maiden"},{"name":"Sgorr nam Fiannaidh (Aonach Eagach)","height":967,"gridref_letters":"NN","gridref_eastings":"14043","gridref_northings":"58306","latlng_lat":56.679387,"latlng_lng":-5.037143,"smcid":"M188","metoffice_loc_id":"353412","region":"Rannoch Moor to Loch Linnhe","meaning":"Peak of the Fian warriors"},{"name":"Ben More","height":966,"gridref_letters":"NM","gridref_eastings":"52576","gridref_northings":"33078","latlng_lat":56.424829,"latlng_lng":-6.014015,"smcid":"M189","metoffice_loc_id":"350374","region":"The Islands","meaning":"Big hill"},{"name":"Sgurr na Banachdich","height":965,"gridref_letters":"NG","gridref_eastings":"44047","gridref_northings":"22447","latlng_lat":57.220964,"latlng_lng":-6.24162,"smcid":"M190","metoffice_loc_id":"353438","region":"The Islands","meaning":"Perhaps from banachdag, a milkmaid"},{"name":"Sgurr nan Gillean","height":964,"gridref_letters":"NG","gridref_eastings":"47161","gridref_northings":"25301","latlng_lat":57.248262,"latlng_lng":-6.193098,"smcid":"M191","metoffice_loc_id":"353453","region":"The Islands","meaning":"Peak of the young men"},{"name":"Carn a' Chlamain","height":963,"gridref_letters":"NN","gridref_eastings":"91591","gridref_northings":"75807","latlng_lat":56.860968,"latlng_lng":-3.779629,"smcid":"M192","metoffice_loc_id":"350774","region":"Drumochter to Glen Shee","meaning":"Hill of the kite or buzzard"},{"name":"Sgurr Thuilm","height":963,"gridref_letters":"NM","gridref_eastings":"93906","gridref_northings":"87980","latlng_lat":56.937056,"latlng_lng":-5.389207,"smcid":"M193","metoffice_loc_id":"353454","region":"Loch Linnhe to Glen Shiel","meaning":"Peak of the rounded hillock"},{"name":"Ben Klibreck","height":962,"gridref_letters":"NC","gridref_eastings":"58530","gridref_northings":"29921","latlng_lat":58.235202,"latlng_lng":-4.41113,"smcid":"M194","metoffice_loc_id":"352593","region":"Loch Broom to the Pentland Firth","meaning":"Hill of the speckled cliff"},{"name":"Sgorr Ruadh","height":962,"gridref_letters":"NG","gridref_eastings":"95907","gridref_northings":"50506","latlng_lat":57.498622,"latlng_lng":-5.407747,"smcid":"M195","metoffice_loc_id":"353413","region":"Glen Carron to Loch Maree","meaning":"Red peak"},{"name":"Beinn nan Aighenan","height":960,"gridref_letters":"NN","gridref_eastings":"14852","gridref_northings":"40528","latlng_lat":56.520221,"latlng_lng":-5.011233,"smcid":"M196","metoffice_loc_id":"350336","region":"Rannoch Moor to Loch Linnhe","meaning":"Hill of the hinds"},{"name":"Stuchd an Lochain","height":960,"gridref_letters":"NN","gridref_eastings":"48304","gridref_northings":"44840","latlng_lat":56.570907,"latlng_lng":-4.470619,"smcid":"M197","metoffice_loc_id":"353755","region":"Loch Tay to Rannoch Moor","meaning":"Peak of the little loch"},{"name":"Beinn Fhionnlaidh","height":959,"gridref_letters":"NN","gridref_eastings":"09509","gridref_northings":"49769","latlng_lat":56.600979,"latlng_lng":-5.104733,"smcid":"M198","metoffice_loc_id":"350325","region":"Rannoch Moor to Loch Linnhe","meaning":"Finlay's hill"},{"name":"Meall Glas","height":959,"gridref_letters":"NN","gridref_eastings":"43148","gridref_northings":"32194","latlng_lat":56.455712,"latlng_lng":-4.546821,"smcid":"M199","metoffice_loc_id":"352587","region":"Loch Tay to Rannoch Moor","meaning":"Greenish-grey hill"},{"name":"Bruach na Frithe","height":958,"gridref_letters":"NG","gridref_eastings":"46084","gridref_northings":"25200","latlng_lat":57.246761,"latlng_lng":-6.210795,"smcid":"M200","metoffice_loc_id":"350657","region":"The Islands","meaning":"Slope of the deer forest"},{"name":"Buachaille Etive Beag, Stob Dubh","height":958,"gridref_letters":"NN","gridref_eastings":"17910","gridref_northings":"53540","latlng_lat":56.63815,"latlng_lng":-4.970746,"smcid":"M201","metoffice_loc_id":"353693","region":"Rannoch Moor to Loch Linnhe","meaning":"Small herdsman of Etive, black peak"},{"name":"Tolmount","height":958,"gridref_letters":"NO","gridref_eastings":"21050","gridref_northings":"80018","latlng_lat":56.904733,"latlng_lng":-3.297946,"smcid":"M202","metoffice_loc_id":"353933","region":"Glen Shee to Glen Esk","meaning":"Doll mounth or hill (leading to Glen Doll)"},{"name":"Carn Ghluasaid","height":957,"gridref_letters":"NH","gridref_eastings":"14576","gridref_northings":"12522","latlng_lat":57.16595,"latlng_lng":-5.068158,"smcid":"M203","metoffice_loc_id":"350789","region":"Glen Shiel to Loch Mullardoch","meaning":"Hill of movement"},{"name":"Tom Buidhe","height":957,"gridref_letters":"NO","gridref_eastings":"21367","gridref_northings":"78774","latlng_lat":56.893615,"latlng_lng":-3.292356,"smcid":"M204","metoffice_loc_id":"353935","region":"Glen Shee to Glen Esk","meaning":"Yellow hill"},{"name":"Saileag","height":956,"gridref_letters":"NH","gridref_eastings":"01774","gridref_northings":"14828","latlng_lat":57.181273,"latlng_lng":-5.281332,"smcid":"M205","metoffice_loc_id":"353301","region":"Glen Shiel to Loch Mullardoch","meaning":"Little heel"},{"name":"Sgurr nan Coireachean","height":956,"gridref_letters":"NM","gridref_eastings":"90290","gridref_northings":"88013","latlng_lat":56.935728,"latlng_lng":-5.448551,"smcid":"M206","metoffice_loc_id":"353449","region":"Loch Linnhe to Glen Shiel","meaning":"Peak of the corries"},{"name":"Buachaille Etive Mor, Stob na Broige","height":956,"gridref_letters":"NN","gridref_eastings":"19072","gridref_northings":"52568","latlng_lat":56.62988,"latlng_lng":-4.951151,"smcid":"M207","metoffice_loc_id":"353695","region":"Rannoch Moor to Loch Linnhe","meaning":"Peak of the shoe"},{"name":"Sgor Gaibhre","height":955,"gridref_letters":"NN","gridref_eastings":"44477","gridref_northings":"67447","latlng_lat":56.772544,"latlng_lng":-4.546498,"smcid":"M208","metoffice_loc_id":"353407","region":"Loch Linnhe to Loch Ericht","meaning":"Goat's peak"},{"name":"Beinn Liath Mhor Fannaich","height":954,"gridref_letters":"NH","gridref_eastings":"21960","gridref_northings":"72411","latlng_lat":57.706104,"latlng_lng":-4.989776,"smcid":"M209","metoffice_loc_id":"350332","region":"Loch Maree to Loch Broom","meaning":"Big grey hill of Fannich"},{"name":"Am Faochagach","height":953,"gridref_letters":"NH","gridref_eastings":"30361","gridref_northings":"79372","latlng_lat":57.771801,"latlng_lng":-4.853899,"smcid":"M210","metoffice_loc_id":"350083","region":"Loch Broom to the Cromarty Firth","meaning":"The place of the shells"},{"name":"Beinn Mhanach","height":953,"gridref_letters":"NN","gridref_eastings":"37370","gridref_northings":"41140","latlng_lat":56.53404,"latlng_lng":-4.646059,"smcid":"M211","metoffice_loc_id":"350333","region":"Loch Tay to Rannoch Moor","meaning":"Monk hill"},{"name":"Meall Dearg (Aonach Eagach)","height":953,"gridref_letters":"NN","gridref_eastings":"16124","gridref_northings":"58363","latlng_lat":56.68072,"latlng_lng":-5.003271,"smcid":"M212","metoffice_loc_id":"352583","region":"Rannoch Moor to Loch Linnhe","meaning":"Red hill"},{"name":"Sgurr nan Coireachan","height":953,"gridref_letters":"NM","gridref_eastings":"93308","gridref_northings":"95827","latlng_lat":57.007158,"latlng_lng":-5.40544,"smcid":"M213","metoffice_loc_id":"353448","region":"Loch Linnhe to Glen Shiel","meaning":"Peak of the corries"},{"name":"Meall Chuaich","height":951,"gridref_letters":"NN","gridref_eastings":"71649","gridref_northings":"87834","latlng_lat":56.963851,"latlng_lng":-4.112552,"smcid":"M214","metoffice_loc_id":"352581","region":"Loch Ericht to Drumochter","meaning":"Hill of the quaich"},{"name":"Meall Gorm","height":949,"gridref_letters":"NH","gridref_eastings":"22192","gridref_northings":"69584","latlng_lat":57.680837,"latlng_lng":-4.983801,"smcid":"M215","metoffice_loc_id":"352588","region":"Loch Maree to Loch Broom","meaning":"Blue hill"},{"name":"Beinn Bhuidhe","height":948,"gridref_letters":"NN","gridref_eastings":"20368","gridref_northings":"18717","latlng_lat":56.326662,"latlng_lng":-4.906722,"smcid":"M216","metoffice_loc_id":"350316","region":"Loch Fyne to Loch Tay","meaning":"Yellow hill"},{"name":"Sgurr Mhic Choinnich","height":948,"gridref_letters":"NG","gridref_eastings":"45021","gridref_northings":"21047","latlng_lat":57.208964,"latlng_lng":-6.2241,"smcid":"M217","metoffice_loc_id":"353421","region":"The Islands","meaning":"MacKenzie's peak (after John MacKenzie, Cuillin guide)"},{"name":"Creag a' Mhaim","height":947,"gridref_letters":"NH","gridref_eastings":"08790","gridref_northings":"07772","latlng_lat":57.120971,"latlng_lng":-5.160048,"smcid":"M218","metoffice_loc_id":"351065","region":"Loch Linnhe to Glen Shiel","meaning":"Rock of the large rounded hill"},{"name":"Driesh","height":947,"gridref_letters":"NO","gridref_eastings":"27117","gridref_northings":"73590","latlng_lat":56.848003,"latlng_lng":-3.196523,"smcid":"M219","metoffice_loc_id":"351247","region":"Glen Shee to Glen Esk","meaning":"From the Gaelic dris, a thorn bush or bramble"},{"name":"Beinn Tulaichean","height":946,"gridref_letters":"NN","gridref_eastings":"41660","gridref_northings":"19604","latlng_lat":56.342216,"latlng_lng":-4.56333,"smcid":"M220","metoffice_loc_id":"350342","region":"Loch Fyne to Loch Tay","meaning":"Hill of the hillocks"},{"name":"Carn Bhac","height":946,"gridref_letters":"NO","gridref_eastings":"05104","gridref_northings":"83225","latlng_lat":56.930541,"latlng_lng":-3.56088,"smcid":"M221","metoffice_loc_id":"350783","region":"Drumochter to Glen Shee","meaning":"Hill of peat-banks"},{"name":"Meall Buidhe","height":946,"gridref_letters":"NM","gridref_eastings":"84898","gridref_northings":"98977","latlng_lat":57.031552,"latlng_lng":-5.546334,"smcid":"M222","metoffice_loc_id":"352579","region":"Loch Linnhe to Glen Shiel","meaning":"Yellow hill"},{"name":"Sgurr na Sgine","height":946,"gridref_letters":"NG","gridref_eastings":"94618","gridref_northings":"11368","latlng_lat":57.147098,"latlng_lng":-5.396634,"smcid":"M223","metoffice_loc_id":"353444","region":"Loch Linnhe to Glen Shiel","meaning":"Peak of the knife"},{"name":"Bidean a' Choire Sheasgaich","height":945,"gridref_letters":"NH","gridref_eastings":"04906","gridref_northings":"41265","latlng_lat":57.419718,"latlng_lng":-5.250473,"smcid":"M224","metoffice_loc_id":"350419","region":"Loch Mullardoch to Glen Carron","meaning":"Peak of the corrie of the barren or milkless cattle"},{"name":"Carn Dearg","height":945,"gridref_letters":"NH","gridref_eastings":"63568","gridref_northings":"02398","latlng_lat":57.092261,"latlng_lng":-4.253246,"smcid":"M225","metoffice_loc_id":"350786","region":"Speyside to Great Glen","meaning":"Red hill"},{"name":"Stob a' Choire Odhair","height":945,"gridref_letters":"NN","gridref_eastings":"25731","gridref_northings":"45982","latlng_lat":56.573308,"latlng_lng":-4.838302,"smcid":"M226","metoffice_loc_id":"353679","region":"Rannoch Moor to Loch Linnhe","meaning":"Peak of the dun-coloured corrie"},{"name":"An Socach","height":944,"gridref_letters":"NO","gridref_eastings":"07939","gridref_northings":"80016","latlng_lat":56.902295,"latlng_lng":-3.513148,"smcid":"M227","metoffice_loc_id":"350100","region":"Drumochter to Glen Shee","meaning":"The projecting place (beak or snout)"},{"name":"Sgurr Dubh Mor","height":944,"gridref_letters":"NG","gridref_eastings":"45758","gridref_northings":"20547","latlng_lat":57.204894,"latlng_lng":-6.211421,"smcid":"M228","metoffice_loc_id":"353429","region":"The Islands","meaning":"Big black peak"},{"name":"Ben Vorlich","height":943,"gridref_letters":"NN","gridref_eastings":"29509","gridref_northings":"12475","latlng_lat":56.27403,"latlng_lng":-4.755047,"smcid":"M229","metoffice_loc_id":"350381","region":"Loch Fyne to Loch Tay","meaning":"Hill of the bay"},{"name":"Binnean Beag","height":943,"gridref_letters":"NN","gridref_eastings":"22179","gridref_northings":"67717","latlng_lat":56.76699,"latlng_lng":-4.911065,"smcid":"M230","metoffice_loc_id":"350437","region":"Loch Linnhe to Loch Ericht","meaning":"Small peak"},{"name":"Beinn a' Chroin","height":942,"gridref_letters":"NN","gridref_eastings":"38755","gridref_northings":"18573","latlng_lat":56.331987,"latlng_lng":-4.609638,"smcid":"M231","metoffice_loc_id":"350310","region":"Loch Fyne to Loch Tay","meaning":"Hill of harm or danger"},{"name":"Carn Dearg","height":941,"gridref_letters":"NN","gridref_eastings":"41773","gridref_northings":"66143","latlng_lat":56.759931,"latlng_lng":-4.589888,"smcid":"M232","metoffice_loc_id":"350785","region":"Loch Linnhe to Loch Ericht","meaning":"Red hill"},{"name":"Carn na Caim","height":941,"gridref_letters":"NN","gridref_eastings":"67700","gridref_northings":"82153","latlng_lat":56.911739,"latlng_lng":-4.174478,"smcid":"M233","metoffice_loc_id":"350795","region":"Loch Ericht to Drumochter","meaning":"Cairn of the curve"},{"name":"Luinne Bheinne","height":939,"gridref_letters":"NG","gridref_eastings":"86979","gridref_northings":"00740","latlng_lat":57.048325,"latlng_lng":-5.513607,"smcid":"M234","metoffice_loc_id":"352460","region":"Loch Linnhe to Glen Shiel","meaning":"Hill of anger, or hill of mirth or melody"},{"name":"Mount Keen","height":939,"gridref_letters":"NO","gridref_eastings":"40905","gridref_northings":"86927","latlng_lat":56.969751,"latlng_lng":-2.973622,"smcid":"M235","metoffice_loc_id":"352701","region":"Glen Shee to Glen Esk","meaning":"Gaelic monadh, meaning hill"},{"name":"Mullach na Coirean","height":939,"gridref_letters":"NN","gridref_eastings":"12237","gridref_northings":"66243","latlng_lat":56.749867,"latlng_lng":-5.072381,"smcid":"M236","metoffice_loc_id":"352721","region":"Loch Linnhe to Loch Ericht","meaning":"Summit of the corries"},{"name":"Beinn Sgulaird","height":937,"gridref_letters":"NN","gridref_eastings":"05303","gridref_northings":"46088","latlng_lat":56.566232,"latlng_lng":-5.170365,"smcid":"M237","metoffice_loc_id":"350339","region":"Rannoch Moor to Loch Linnhe","meaning":"Unknown"},{"name":"Beinn Tarsuinn","height":937,"gridref_letters":"NH","gridref_eastings":"03962","gridref_northings":"72794","latlng_lat":57.702052,"latlng_lng":-5.291601,"smcid":"M238","metoffice_loc_id":"350340","region":"Loch Maree to Loch Broom","meaning":"Transverse hill"},{"name":"Sron a' Choire Ghairbh","height":937,"gridref_letters":"NN","gridref_eastings":"22246","gridref_northings":"94560","latlng_lat":57.007839,"latlng_lng":-4.928763,"smcid":"M239","metoffice_loc_id":"353631","region":"Loch Linnhe to Glen Shiel","meaning":"Nose of the rough corrie"},{"name":"A' Bhuidheanach Bheag","height":936,"gridref_letters":"NN","gridref_eastings":"66069","gridref_northings":"77600","latlng_lat":56.870399,"latlng_lng":-4.198839,"smcid":"M240","metoffice_loc_id":"350001","region":"Loch Ericht to Drumochter","meaning":"The little yellow place"},{"name":"Beinn na Lap","height":935,"gridref_letters":"NN","gridref_eastings":"37616","gridref_northings":"69585","latlng_lat":56.78939,"latlng_lng":-4.659994,"smcid":"M241","metoffice_loc_id":"350335","region":"Loch Linnhe to Loch Ericht","meaning":"Mottled hill"},{"name":"Am Basteir","height":934,"gridref_letters":"NG","gridref_eastings":"46563","gridref_northings":"25301","latlng_lat":57.247931,"latlng_lng":-6.202982,"smcid":"M242","metoffice_loc_id":"350081","region":"The Islands","meaning":"Obscure but probably NOT the executioner"},{"name":"Meall a' Chrasgaidh","height":934,"gridref_letters":"NH","gridref_eastings":"18483","gridref_northings":"73321","latlng_lat":57.712876,"latlng_lng":-5.048726,"smcid":"M243","metoffice_loc_id":"352578","region":"Loch Maree to Loch Broom","meaning":"Hill of the crossing"},{"name":"Beinn Chabhair","height":933,"gridref_letters":"NN","gridref_eastings":"36760","gridref_northings":"17957","latlng_lat":56.325775,"latlng_lng":-4.641485,"smcid":"M244","metoffice_loc_id":"350317","region":"Loch Fyne to Loch Tay","meaning":"Possibly hill of the hawk"},{"name":"The Cairnwell","height":933,"gridref_letters":"NO","gridref_eastings":"13486","gridref_northings":"77358","latlng_lat":56.879502,"latlng_lng":-3.421198,"smcid":"M245","metoffice_loc_id":"3072","region":"Drumochter to Glen Shee","meaning":"From Gaelic Carn Bhalg, hill of bags"},{"name":"Fionn Bheinn","height":933,"gridref_letters":"NH","gridref_eastings":"14749","gridref_northings":"62149","latlng_lat":57.611148,"latlng_lng":-5.102713,"smcid":"M246","metoffice_loc_id":"351468","region":"Loch Maree to Loch Broom","meaning":"Pale-coloured hill"},{"name":"Maol Chean-dearg","height":933,"gridref_letters":"NG","gridref_eastings":"92406","gridref_northings":"49911","latlng_lat":57.491697,"latlng_lng":-5.465549,"smcid":"M247","metoffice_loc_id":"352524","region":"Glen Carron to Loch Maree","meaning":"Bald red head"},{"name":"Meall Buidhe","height":932,"gridref_letters":"NN","gridref_eastings":"49840","gridref_northings":"49947","latlng_lat":56.61724,"latlng_lng":-4.448608,"smcid":"M248","metoffice_loc_id":"352580","region":"Loch Tay to Rannoch Moor","meaning":"Yellow hill"},{"name":"Beinn Bhreac","height":931,"gridref_letters":"NO","gridref_eastings":"05870","gridref_northings":"97074","latlng_lat":57.055063,"latlng_lng":-3.553471,"smcid":"M249","metoffice_loc_id":"350314","region":"Deeside to Speyside - The Cairngorms","meaning":"Speckled hill"},{"name":"Ben Chonzie (Ben-y-Hone)","height":931,"gridref_letters":"NN","gridref_eastings":"77324","gridref_northings":"30857","latlng_lat":56.453851,"latlng_lng":-3.992057,"smcid":"M250","metoffice_loc_id":"350367","region":"Loch Fyne to Loch Tay","meaning":"Probably mossy hill"},{"name":"A' Chailleach","height":930,"gridref_letters":"NH","gridref_eastings":"68110","gridref_northings":"04178","latlng_lat":57.109564,"latlng_lng":-4.179285,"smcid":"M251","metoffice_loc_id":"350025","region":"Speyside to Great Glen","meaning":"The old woman"},{"name":"Bla Bheinn (Blaven)","height":928,"gridref_letters":"NG","gridref_eastings":"52990","gridref_northings":"21743","latlng_lat":57.219565,"latlng_lng":-6.09321,"smcid":"M252","metoffice_loc_id":"350463","region":"The Islands","meaning":"Blue hill, or possibly warm hill"},{"name":"Mayar","height":928,"gridref_letters":"NO","gridref_eastings":"24081","gridref_northings":"73749","latlng_lat":56.848936,"latlng_lng":-3.246316,"smcid":"M253","metoffice_loc_id":"352569","region":"Glen Shee to Glen Esk","meaning":"Meaning obscure"},{"name":"Meall nan Eun","height":928,"gridref_letters":"NN","gridref_eastings":"19250","gridref_northings":"44903","latlng_lat":56.561177,"latlng_lng":-4.942893,"smcid":"M254","metoffice_loc_id":"352594","region":"Rannoch Moor to Loch Linnhe","meaning":"Hill of the birds"},{"name":"Moruisg","height":928,"gridref_letters":"NH","gridref_eastings":"10114","gridref_northings":"49939","latlng_lat":57.499712,"latlng_lng":-5.17063,"smcid":"M255","metoffice_loc_id":"352686","region":"Loch Mullardoch to Glen Carron","meaning":"Big water"},{"name":"Ben Hope","height":927,"gridref_letters":"NC","gridref_eastings":"47750","gridref_northings":"50151","latlng_lat":58.413113,"latlng_lng":-4.60786,"smcid":"M256","metoffice_loc_id":"350369","region":"Loch Broom to the Pentland Firth","meaning":"Hill of the bay"},{"name":"Eididh nan Clach Geala","height":927,"gridref_letters":"NH","gridref_eastings":"25787","gridref_northings":"84215","latlng_lat":57.813492,"latlng_lng":-4.934218,"smcid":"M257","metoffice_loc_id":"351366","region":"Loch Broom to the Cromarty Firth","meaning":"Web of the white stones"},{"name":"Beinn Liath Mhor","height":926,"gridref_letters":"NG","gridref_eastings":"96409","gridref_northings":"51981","latlng_lat":57.512074,"latlng_lng":-5.400617,"smcid":"M258","metoffice_loc_id":"350331","region":"Glen Carron to Loch Maree","meaning":"Big grey hill"},{"name":"Beinn Narnain","height":926,"gridref_letters":"NN","gridref_eastings":"27168","gridref_northings":"06654","latlng_lat":56.220947,"latlng_lng":-4.789002,"smcid":"M259","metoffice_loc_id":"350337","region":"Loch Fyne to Loch Tay","meaning":"Unknown"},{"name":"Geal Charn","height":926,"gridref_letters":"NN","gridref_eastings":"56144","gridref_northings":"98768","latlng_lat":57.057418,"latlng_lng":-4.373572,"smcid":"M260","metoffice_loc_id":"351555","region":"Speyside to Great Glen","meaning":"White hill"},{"name":"Meall a' Choire Leith","height":926,"gridref_letters":"NN","gridref_eastings":"61248","gridref_northings":"43882","latlng_lat":56.566312,"latlng_lng":-4.259625,"smcid":"M261","metoffice_loc_id":"352577","region":"Loch Tay to Rannoch Moor","meaning":"Hill of the grey corrie"},{"name":"Seana Bhraigh","height":926,"gridref_letters":"NH","gridref_eastings":"28181","gridref_northings":"87884","latlng_lat":57.84733,"latlng_lng":-4.89662,"smcid":"M262","metoffice_loc_id":"353389","region":"Loch Broom to the Cromarty Firth","meaning":"Old upper part"},{"name":"Buachaille Etive Beag, Stob Coire Raineach","height":925,"gridref_letters":"NN","gridref_eastings":"19135","gridref_northings":"54801","latlng_lat":56.649938,"latlng_lng":-4.951686,"smcid":"M263","metoffice_loc_id":"353684","region":"Rannoch Moor to Loch Linnhe","meaning":"Ferny corrie peak"},{"name":"Creag Pitridh","height":924,"gridref_letters":"NN","gridref_eastings":"48752","gridref_northings":"81459","latlng_lat":56.899713,"latlng_lng":-4.484955,"smcid":"M264","metoffice_loc_id":"351070","region":"Loch Linnhe to Loch Ericht","meaning":"Meaning uncertain, perhaps from the surname Petrie"},{"name":"Sgurr nan Eag","height":924,"gridref_letters":"NG","gridref_eastings":"45705","gridref_northings":"19536","latlng_lat":57.19581,"latlng_lng":-6.211264,"smcid":"M265","metoffice_loc_id":"353452","region":"The Islands","meaning":"Peak of the notches"},{"name":"An Coileachan","height":923,"gridref_letters":"NH","gridref_eastings":"24172","gridref_northings":"68024","latlng_lat":57.667625,"latlng_lng":-4.949498,"smcid":"M266","metoffice_loc_id":"350096","region":"Loch Maree to Loch Broom","meaning":"The little cock"},{"name":"Sgurr nan Each","height":923,"gridref_letters":"NH","gridref_eastings":"18464","gridref_northings":"69770","latlng_lat":57.681017,"latlng_lng":-5.046351,"smcid":"M267","metoffice_loc_id":"353451","region":"Loch Maree to Loch Broom","meaning":"Peak of the horses"},{"name":"Tom na Gruagaich (Beinn Alligin)","height":922,"gridref_letters":"NG","gridref_eastings":"85958","gridref_northings":"60153","latlng_lat":57.580519,"latlng_lng":-5.581912,"smcid":"M268","metoffice_loc_id":"353936","region":"Glen Carron to Loch Maree","meaning":"Hill of the maiden"},{"name":"An Socach","height":921,"gridref_letters":"NH","gridref_eastings":"08817","gridref_northings":"22997","latlng_lat":57.257533,"latlng_lng":-5.171293,"smcid":"M269","metoffice_loc_id":"350101","region":"Glen Shiel to Loch Mullardoch","meaning":"The snout"},{"name":"Sgiath Chuil","height":921,"gridref_letters":"NN","gridref_eastings":"46290","gridref_northings":"31793","latlng_lat":56.453149,"latlng_lng":-4.495653,"smcid":"M270","metoffice_loc_id":"353405","region":"Loch Tay to Rannoch Moor","meaning":"Back wing"},{"name":"Carn Sgulain","height":920,"gridref_letters":"NH","gridref_eastings":"68302","gridref_northings":"05821","latlng_lat":57.124371,"latlng_lng":-4.176986,"smcid":"M271","metoffice_loc_id":"350799","region":"Speyside to Great Glen","meaning":"Hill of the basket, or of the old man"},{"name":"Gairich","height":919,"gridref_letters":"NN","gridref_eastings":"02589","gridref_northings":"99580","latlng_lat":57.044879,"latlng_lng":-5.255827,"smcid":"M272","metoffice_loc_id":"351533","region":"Loch Linnhe to Glen Shiel","meaning":"Roaring"},{"name":"Ruadh Stac Mor","height":919,"gridref_letters":"NH","gridref_eastings":"01853","gridref_northings":"75655","latlng_lat":57.726781,"latlng_lng":-5.329288,"smcid":"M273","metoffice_loc_id":"353275","region":"Loch Maree to Loch Broom","meaning":"Big red peak"},{"name":"A' Ghlas-bheinn","height":918,"gridref_letters":"NH","gridref_eastings":"00822","gridref_northings":"23105","latlng_lat":57.25509,"latlng_lng":-5.303687,"smcid":"M274","metoffice_loc_id":"350044","region":"Glen Shiel to Loch Mullardoch","meaning":"The greenish-grey hill"},{"name":"Creag nan Damh","height":918,"gridref_letters":"NG","gridref_eastings":"98370","gridref_northings":"11201","latlng_lat":57.147263,"latlng_lng":-5.334597,"smcid":"M275","metoffice_loc_id":"351069","region":"Loch Linnhe to Glen Shiel","meaning":"Rock of the stags"},{"name":"Meall na Teanga","height":918,"gridref_letters":"NN","gridref_eastings":"22025","gridref_northings":"92478","latlng_lat":56.989075,"latlng_lng":-4.930927,"smcid":"M276","metoffice_loc_id":"352591","region":"Loch Linnhe to Glen Shiel","meaning":"Hill of the tongue"},{"name":"Sgurr a' Mhadaidh","height":918,"gridref_letters":"NG","gridref_eastings":"44700","gridref_northings":"23512","latlng_lat":57.230869,"latlng_lng":-6.231931,"smcid":"M277","metoffice_loc_id":"353418","region":"The Islands","meaning":"Peak of the fox"},{"name":"Geal-charn","height":917,"gridref_letters":"NN","gridref_eastings":"59644","gridref_northings":"78261","latlng_lat":56.874433,"latlng_lng":-4.304519,"smcid":"M278","metoffice_loc_id":"351554","region":"Loch Ericht to Drumochter","meaning":"White hill"},{"name":"Beinn a' Chleibh","height":916,"gridref_letters":"NN","gridref_eastings":"25054","gridref_northings":"25606","latlng_lat":56.390231,"latlng_lng":-4.835632,"smcid":"M279","metoffice_loc_id":"350307","region":"Loch Fyne to Loch Tay","meaning":"Hill of the creel or chest"},{"name":"Ben Vane","height":916,"gridref_letters":"NN","gridref_eastings":"27754","gridref_northings":"09844","latlng_lat":56.249786,"latlng_lng":-4.781639,"smcid":"M280","metoffice_loc_id":"350380","region":"Loch Fyne to Loch Tay","meaning":"Middle hill"},{"name":"Carn Aosda","height":915,"gridref_letters":"NO","gridref_eastings":"13397","gridref_northings":"79164","latlng_lat":56.895696,"latlng_lng":-3.423274,"smcid":"M281","metoffice_loc_id":"350782","region":"Drumochter to Glen Shee","meaning":"Hill of age"},{"name":"Beinn Teallach","height":915,"gridref_letters":"NN","gridref_eastings":"36136","gridref_northings":"85973","latlng_lat":56.935928,"latlng_lng":-4.694757,"smcid":"M282","metoffice_loc_id":"350341","region":"Speyside to Great Glen","meaning":"Forge hill"}]